{"features": [{"geometry": {"coordinates": [2.067771, 41.380322], "type": "Point"}, "properties": {"description": "Vivienda de Mar\u00e9s", "name": "Walden 7"}, "type": "Feature"}, {"geometry": {"coordinates": [2.177014, 41.382866], "type": "Point"}, "properties": {"description": "Donde a veces toca y cerca de donde trabaja la ex", "name": "Pla\u00e7a Sant Jaume"}, "type": "Feature"}, {"geometry": {"coordinates": [2.175605, 41.381439], "type": "Point"}, "properties": {"description": " ", "name": "Carrer Ferran"}, "type": "Feature"}, {"geometry": {"coordinates": [2.175959, 41.381334], "type": "Point"}, "properties": {"description": "Donde come con el nuevo novio", "name": "L'agut D'avignon"}, "type": "Feature"}, {"geometry": {"coordinates": [2.167264, 41.385729], "type": "Point"}, "properties": {"description": " ", "name": "Carrer Pelai"}, "type": "Feature"}, {"geometry": {"coordinates": [2.172145, 41.387892], "type": "Point"}, "properties": {"description": "Donde se conocen con los Amigos de la UNESCO", "name": "Carrer Fontanella"}, "type": "Feature"}, {"geometry": {"coordinates": [2.173757, 41.381118], "type": "Point"}, "properties": {"description": " ", "name": "Caf\u00e9 de la Opera"}, "type": "Feature"}, {"geometry": {"coordinates": [2.172453, 41.386091], "type": "Point"}, "properties": {"description": "Tacando en frende de los Almacenes Jorba.", "name": "Portal de L'angel"}, "type": "Feature"}, {"geometry": {"coordinates": [2.149565, 41.411557], "type": "Point"}, "properties": {"description": " ", "name": "Adalt al Carrer Verdi"}, "type": "Feature"}], "type": "FeatureCollection"}